City_ID,City,Lat,Lng,Max Temp,Humidity,Cloudiness,Wind Speed,Country,Date
0,ushuaia,-54.8,-68.3,11.81,54,20,8.75,AR,1675469362
1,bambous virieux,-20.3428,57.7575,24.01,83,20,1.41,MU,1675469363
2,aklavik,68.2191,-135.0107,-28.89,93,99,1.49,CA,1675469363
3,esperance,-33.8667,121.9,19.7,61,60,5.61,AU,1675469364
4,monrovia,6.3005,-10.7969,24.87,91,0,2.91,LR,1675469364
5,kruisfontein,-34.0033,24.7314,21.05,90,56,2.24,ZA,1675469364
6,son la,21.3167,103.9,16.85,98,99,0.31,VN,1675469364
7,nikolskoye,59.7035,30.7861,-3.45,96,100,2.58,RU,1675469365
8,jamestown,42.097,-79.2353,-12.23,87,100,6.17,US,1675469320
9,bambari,5.768,20.6757,25.4,20,6,0.86,CF,1675469366
10,qaanaaq,77.484,-69.3632,-18.96,59,33,3.17,GL,1675469366
11,beringovskiy,63.05,179.3167,-23.3,95,99,6.45,RU,1675469366
12,batemans bay,-35.7167,150.1833,19.5,26,0,3.17,AU,1675469145
13,chuy,-33.6971,-53.4616,20.26,85,87,4.7,UY,1675469367
14,prince rupert,54.3161,-130.3201,6.83,86,100,10.29,CA,1675469145
15,russell,32.3502,-85.1999,9.78,56,0,3.41,US,1675469282
16,tiznit,29.5833,-9.5,9.68,29,26,2.02,MA,1675469367
17,sao filipe,14.8961,-24.4956,21.66,70,95,5.76,CV,1675469368
18,norman wells,65.282,-126.8329,-25.03,95,98,0.35,CA,1675469368
19,kodiak,57.79,-152.4072,1.73,64,100,3.09,US,1675469369
20,vila,42.0304,-8.1588,1.49,60,0,1.7,PT,1675469369
21,avarua,-21.2078,-159.775,29.03,74,75,6.69,CK,1675469369
22,rikitea,-23.1203,-134.9692,25.93,72,100,2.6,PF,1675469369
23,bluff,-46.6,168.3333,20.94,76,4,3.34,NZ,1675469370
24,tasiilaq,65.6145,-37.6368,-1.91,84,100,5.87,GL,1675469370
25,nanakuli,21.3906,-158.1547,26.66,76,100,2.57,US,1675469371
26,namibe,-15.1961,12.1522,22.42,75,97,2.99,AO,1675469372
27,rocha,-34.4833,-54.3333,19.29,80,98,4.17,UY,1675469372
28,orlik,52.5178,99.825,-27.37,93,15,1.01,RU,1675469372
29,punta arenas,-53.15,-70.9167,14.06,44,0,10.8,CL,1675469373
30,albany,42.6001,-73.9662,-16.87,55,87,2.24,US,1675469195
31,vao,-22.6667,167.4833,26.93,77,100,6.53,NC,1675469373
32,olovyannaya,50.95,115.5667,-27.08,100,73,1.11,RU,1675469374
33,cape town,-33.9258,18.4232,21.06,67,0,5.14,ZA,1675469166
34,kavaratti,10.5669,72.642,27.36,65,96,3.01,IN,1675469374
35,morehead,37.2711,-87.1764,-3.34,52,0,1.54,US,1675469270
36,hermanus,-34.4187,19.2345,19.33,79,0,5.24,ZA,1675469375
37,mataura,-46.1927,168.8643,29.39,41,5,1.75,NZ,1675469375
38,pucallpa,-8.3791,-74.5539,27.02,69,40,2.06,PE,1675469375
39,lompoc,34.6391,-120.4579,18.9,65,90,2.68,US,1675469376
40,komsomolskiy,40.4272,71.7189,5.4,87,99,6.17,UZ,1675469376
41,pandan,14.0453,124.1694,25.77,78,88,8.19,PH,1675469376
42,ribeira grande,38.5167,-28.7,16.54,92,100,4.92,PT,1675469377
43,carnarvon,-24.8667,113.6333,27.32,69,19,3.23,AU,1675469377
44,chililabombwe,-12.3648,27.8229,17.74,94,100,0.73,ZM,1675469378
45,pasighat,28.0667,95.3333,14.71,36,4,1.32,IN,1675469330
46,brae,60.3964,-1.353,7.05,95,100,8.5,GB,1675469378
47,keti bandar,24.1447,67.4497,19.97,78,0,4.0,PK,1675469378
48,orizona,-17.0314,-48.2958,21.34,85,100,0.85,BR,1675469379
49,vaini,-21.2,-175.2,27.09,89,75,4.12,TO,1675469379
50,luderitz,-26.6481,15.1594,17.01,81,23,5.4,NA,1675469379
51,barrow,71.2906,-156.7887,-25.99,84,100,7.2,US,1675469380
52,hofn,64.2539,-15.2082,4.01,78,100,16.24,IS,1675469380
53,olyka,50.7186,25.8125,-1.15,82,100,4.21,UA,1675469380
54,axim,4.8699,-2.2405,26.35,89,35,2.85,GH,1675469381
55,port alfred,-33.5906,26.891,20.1,93,50,1.34,ZA,1675469381
56,hithadhoo,-0.6,73.0833,27.41,71,66,8.85,MV,1675469381
57,nanortalik,60.1432,-45.2371,-8.64,76,100,10.97,GL,1675469382
58,busselton,-33.65,115.3333,23.39,47,3,5.49,AU,1675469382
59,pevek,69.7008,170.3133,-32.77,100,23,0.81,RU,1675469382
60,ahipara,-35.1667,173.1667,21.81,81,100,3.4,NZ,1675469339
61,georgetown,5.4112,100.3354,24.97,99,20,1.03,MY,1675469171
62,asau,46.4333,26.4,-2.62,90,100,1.67,RO,1675469383
63,olafsvik,64.8945,-23.7142,2.6,81,75,20.01,IS,1675469383
64,atuona,-9.8,-139.0333,26.06,77,28,8.41,PF,1675469383
65,puerto escondido,15.85,-97.0667,28.46,65,20,2.57,MX,1675469384
66,southampton,50.904,-1.4043,9.33,88,1,1.34,GB,1675469098
67,ixtapa,20.7,-105.2,24.57,83,0,3.09,MX,1675469317
68,tingi,-11.3,35.0333,17.39,91,100,0.65,TZ,1675469384
69,san pedro de uraba,8.2752,-76.3764,23.72,86,55,3.2,CO,1675469384
70,tura,25.5198,90.2201,13.93,60,9,1.3,IN,1675469385
71,cayenne,4.9333,-52.3333,24.02,94,75,0.0,GF,1675469385
72,castro,-24.7911,-50.0119,18.04,97,100,3.43,BR,1675469385
73,forquilhinha,-28.7475,-49.4722,22.65,98,100,0.81,BR,1675469386
74,dikson,73.5069,80.5464,-16.43,96,100,0.62,RU,1675469386
75,lagoa,39.05,-27.9833,15.24,82,100,3.45,PT,1675469386
76,lorengau,-2.0226,147.2712,28.06,74,100,0.52,PG,1675469386
77,ilulissat,69.2167,-51.1,-12.99,72,75,3.09,GL,1675469387
78,aksakovo,43.25,27.8167,2.28,86,50,1.03,BG,1675469387
79,ronne,55.1009,14.7066,1.95,75,40,6.69,DK,1675469387
80,victoria,22.2855,114.1577,18.03,84,98,5.81,HK,1675469144
81,ancud,-41.8697,-73.8203,17.22,81,3,1.73,CL,1675469388
82,souillac,-20.5167,57.5167,25.3,86,34,2.51,MU,1675469388
83,belmonte,-15.8631,-38.8828,25.42,85,1,3.62,BR,1675469334
84,shirdi,19.7667,74.4833,16.59,38,85,0.93,IN,1675469233
85,saint anthony,45.0205,-93.218,-15.95,62,100,5.14,US,1675469389
86,melo,-32.3667,-54.1833,19.5,89,96,5.37,UY,1675469389
87,ponta do sol,32.6667,-17.1,15.62,52,35,2.55,PT,1675469390
88,sola,-13.8833,167.55,28.25,70,72,1.21,VU,1675469390
89,kapaa,22.0752,-159.319,23.6,77,100,6.69,US,1675469391
90,vila velha,-20.3297,-40.2925,25.97,85,0,5.14,BR,1675469097
91,butaritari,3.0707,172.7902,27.75,76,10,7.33,KI,1675469391
92,upernavik,72.7868,-56.1549,-26.17,100,100,3.51,GL,1675469391
93,yellowknife,62.456,-114.3525,-23.58,69,72,2.24,CA,1675469254
94,saran,47.9501,1.876,8.23,91,100,2.06,FR,1675469392
95,arraial do cabo,-22.9661,-42.0278,25.07,87,56,8.74,BR,1675469392
96,adet,11.2644,37.4888,14.67,50,60,0.98,ET,1675469392
97,te anau,-45.4167,167.7167,25.73,51,16,1.59,NZ,1675469393
98,khatanga,71.9667,102.5,-33.91,100,84,1.8,RU,1675469393
99,radstadt,47.3833,13.45,2.33,98,100,5.2,AT,1675469394
100,saskylakh,71.9167,114.0833,-42.4,100,72,1.77,RU,1675469394
101,trinidad,-14.8333,-64.9,21.46,98,100,1.56,BO,1675469395
102,marawi,7.9986,124.2928,20.8,76,71,0.48,PH,1675469395
103,bonthe,7.5264,-12.505,25.44,90,1,3.06,SL,1675469396
104,bredasdorp,-34.5322,20.0403,17.59,84,0,2.76,ZA,1675469396
105,huron,41.1501,-82.5499,-9.62,71,91,4.94,US,1675469396
106,hamilton,39.1834,-84.5333,-4.75,57,0,3.09,US,1675469372
107,hobart,-42.8794,147.3294,15.03,87,75,4.63,AU,1675469173
108,puerto ayora,-0.7393,-90.3518,26.97,87,82,3.13,EC,1675469397
109,nyurba,63.2842,118.3319,-32.17,99,100,1.27,RU,1675469397
110,kaitangata,-46.2817,169.8464,23.6,62,12,3.44,NZ,1675469397
111,ostrovnoy,68.0531,39.5131,-12.66,95,99,3.78,RU,1675469398
112,east london,-33.0153,27.9116,22.87,82,90,4.76,ZA,1675469398
113,nuuk,64.1835,-51.7216,-9.66,79,100,7.72,GL,1675469313
114,hirara,24.8,125.2833,18.99,75,88,6.29,JP,1675469399
115,banda aceh,5.5577,95.3222,24.96,86,100,2.28,ID,1675469399
116,bilma,18.6853,12.9164,20.03,15,18,2.98,NE,1675469399
117,college,64.8569,-147.8028,-13.03,78,75,1.54,US,1675469241
118,hasaki,35.7333,140.8333,5.16,73,98,3.15,JP,1675469400
119,ketchikan,55.3422,-131.6461,2.5,98,100,1.68,US,1675469400
120,vrangel,42.7297,133.0839,-7.38,58,73,2.33,RU,1675469401
121,kargasok,59.0556,80.8572,-17.31,100,99,0.74,RU,1675469401
122,manokwari,-0.8667,134.0833,27.4,69,100,0.76,ID,1675469402
123,kawalu,-7.3817,108.2082,23.56,88,100,0.52,ID,1675469402
124,lebu,-37.6167,-73.65,17.61,75,0,8.94,CL,1675469403
125,mahebourg,-20.4081,57.7,24.03,83,23,1.46,MU,1675469404
126,turochak,52.2576,87.1224,-6.0,97,100,0.24,RU,1675469404
127,new norfolk,-42.7826,147.0587,14.84,75,100,0.89,AU,1675469405
128,hay river,60.8156,-115.7999,-19.6,98,100,2.27,CA,1675469405
129,henties bay,-22.116,14.2845,17.51,86,64,2.41,NA,1675469405
130,mednogorskiy,43.9178,41.1825,-2.07,63,56,2.45,RU,1675469406
131,priargunsk,50.3691,119.1012,-30.45,100,99,0.75,RU,1675469406
132,beloha,-25.1667,45.05,22.43,88,93,3.95,MG,1675469407
133,swellendam,-34.0226,20.4417,19.37,72,0,1.71,ZA,1675469407
134,rio gallegos,-51.6226,-69.2181,16.55,47,28,13.9,AR,1675469408
135,ahmadpur sial,30.6754,71.7483,14.03,38,0,2.34,PK,1675469408
136,chokurdakh,70.6333,147.9167,-26.53,99,100,2.37,RU,1675469408
137,coquimbo,-29.9533,-71.3436,17.85,88,40,3.09,CL,1675469409
138,bathsheba,13.2167,-59.5167,26.34,73,40,7.2,BB,1675469409
139,bay roberts,47.5999,-53.2648,3.36,96,100,1.34,CA,1675469410
140,studena,49.1852,15.2869,3.23,90,99,4.47,CZ,1675469410
141,great yarmouth,52.6083,1.7305,9.17,90,89,4.78,GB,1675469411
142,severo-kurilsk,50.6789,156.125,-2.09,85,99,4.58,RU,1675469339
143,tigil,57.8,158.6667,-21.57,97,52,0.51,RU,1675469411
144,san quintin,30.4833,-115.95,16.53,55,82,6.4,MX,1675469412
145,pingdingshan,33.7385,113.3012,2.43,65,100,1.04,CN,1675469240
146,pombas,17.1503,-25.0201,19.67,74,98,6.9,CV,1675469413
147,cardenas,23.0375,-81.2047,23.42,77,5,4.46,CU,1675469413
148,kholodnyy,62.7167,147.95,-34.22,100,99,0.54,RU,1675469414
149,baruun-urt,46.6806,113.2792,-19.46,86,8,3.54,MN,1675469415
150,fethiye,36.6217,29.1164,3.93,76,20,3.16,TR,1675469415
151,riyadh,24.6877,46.7219,9.08,51,0,2.55,SA,1675469179
152,dingle,10.9995,122.6711,24.7,88,100,4.64,PH,1675469415
153,senanga,-16.1167,23.2667,19.91,92,100,1.31,ZM,1675469416
154,wajir,1.7471,40.0573,24.84,65,62,6.13,KE,1675469416
155,ulaanbaatar,47.9077,106.8832,-18.94,83,19,1.73,MN,1675469326
156,zanjan,36.6736,48.4787,-9.69,92,21,1.49,IR,1675469417
157,nizwa,22.9333,57.5333,18.5,52,0,0.86,OM,1675469418
158,muros,42.7762,-9.0603,4.35,92,0,2.35,ES,1675469418
159,pisco,-13.7,-76.2167,23.03,88,0,7.2,PE,1675469153
160,casas grandes,30.3667,-107.95,16.26,19,21,4.01,MX,1675469419
161,tuatapere,-46.1333,167.6833,28.21,40,1,2.85,NZ,1675469419
162,grindavik,63.8424,-22.4338,2.26,75,75,18.01,IS,1675469420
163,hilo,19.7297,-155.09,28.49,71,75,4.12,US,1675469420
164,gladstone,-23.85,151.25,26.55,83,100,3.09,AU,1675469421
165,tiksi,71.6872,128.8694,-35.89,100,91,0.28,RU,1675469421
166,darovskoy,58.77,47.9564,-4.89,97,100,1.95,RU,1675469421
167,belaya gora,68.5333,146.4167,-29.13,98,99,2.09,RU,1675469422
168,abis,9.7173,122.9438,25.34,81,63,3.82,PH,1675469422
169,canandaigua,42.8742,-77.288,-14.81,72,100,7.6,US,1675469183
170,laguna,38.421,-121.4238,14.1,75,100,3.6,US,1675469423
171,czluchow,53.6672,17.3588,-0.81,85,100,8.1,PL,1675469423
172,leningradskiy,69.3833,178.4167,-30.8,97,100,0.61,RU,1675469424
173,yumen,40.2833,97.2,-7.48,49,52,2.86,CN,1675469425
174,saint-philippe,-21.3585,55.7679,25.77,87,69,4.01,RE,1675469426
175,broken hill,-31.95,141.4333,16.4,41,0,5.65,AU,1675469427
176,vytegra,61.0064,36.4481,-7.37,98,99,1.26,RU,1675469427
177,itoman,26.1247,127.6694,17.01,70,75,3.09,JP,1675469427
178,samarai,-10.6167,150.6667,29.42,71,95,3.44,PG,1675469428
179,lamu,-2.2717,40.902,25.12,91,60,4.03,KE,1675469428
180,bulawayo,-20.15,28.5833,19.82,74,98,3.92,ZW,1675469429
181,fengzhen,40.4394,113.1536,-9.71,52,0,1.26,CN,1675469429
182,port lincoln,-34.7333,135.8667,17.03,62,78,4.56,AU,1675469215
183,san patricio,28.017,-97.5169,14.91,65,10,2.74,US,1675469429
184,mar del plata,-38.0023,-57.5575,21.08,74,1,3.13,AR,1675469335
185,saint-georges,12.0564,-61.7485,24.86,77,14,6.41,GD,1675469430
186,makakilo city,21.3469,-158.0858,25.87,77,100,2.57,US,1675469430
187,kendari,-3.945,122.4989,23.5,94,100,0.41,ID,1675469430
188,alice springs,-23.7,133.8833,19.75,45,0,6.69,AU,1675469431
189,provideniya,64.3833,-173.3,-21.7,89,58,5.37,RU,1675469432
190,saint george,37.1041,-113.5841,14.13,35,0,2.06,US,1675469389
191,morant bay,17.8815,-76.4093,24.84,81,28,3.35,JM,1675469432
192,longyearbyen,78.2186,15.6401,-15.09,61,0,5.14,SJ,1675469434
193,aras,42.5617,-2.356,2.23,75,0,6.17,ES,1675469434
194,sedalia,38.7045,-93.2283,-1.05,29,0,3.6,US,1675469418
195,clyde river,70.4692,-68.5914,-31.16,96,73,2.24,CA,1675469434
196,marabba,12.35,32.1833,21.44,16,19,6.59,SD,1675469435
197,bethel,41.3712,-73.414,-11.25,40,40,9.26,US,1675469435
198,maues,-3.3836,-57.7186,23.87,92,68,1.26,BR,1675469436
199,kaohsiung,22.6163,120.3133,16.97,88,75,3.6,TW,1675469288
200,verkh-usugli,52.7,115.1667,-26.86,99,34,1.24,RU,1675469437
201,acapulco,16.8634,-99.8901,28.9,70,0,3.09,MX,1675469312
202,tromso,69.6496,18.957,-3.99,80,100,9.77,NO,1675469328
203,mayumba,-3.432,10.6554,26.14,87,74,3.19,GA,1675469437
204,kudahuvadhoo,2.6708,72.8944,26.28,70,96,5.27,MV,1675469438
205,smithers,54.7804,-127.1743,2.39,98,100,1.0,CA,1675469438
206,kahului,20.8947,-156.47,27.01,70,75,7.2,US,1675469235
207,taoudenni,22.6783,-3.9836,14.65,25,100,4.37,ML,1675469438
208,okhotsk,59.3833,143.3,-25.09,84,32,5.48,RU,1675469438
209,cherskiy,68.75,161.3,-31.19,100,96,0.17,RU,1675469439
210,lunglei,22.8833,92.7333,7.83,46,99,1.74,IN,1675469439
211,iqaluit,63.7506,-68.5145,-35.17,66,90,5.36,CA,1675469440
212,camana,-16.6228,-72.7111,24.31,79,51,1.49,PE,1675469440
213,newport,51.5877,-2.9984,8.71,93,6,3.1,GB,1675469205
214,yulara,-25.2406,130.9889,21.47,35,0,6.76,AU,1675469441
215,nishihara,26.1842,127.7558,16.6,72,100,3.09,JP,1675469441
216,tucuman,-26.8241,-65.2226,22.87,75,100,2.38,AR,1675469441
217,tuktoyaktuk,69.4541,-133.0374,-36.51,99,33,1.53,CA,1675469442
218,half moon bay,37.4636,-122.4286,13.82,93,75,4.12,US,1675469357
219,birin,26.8865,88.0718,8.11,61,4,2.01,NP,1675469442
220,port-gentil,-0.7193,8.7815,27.3,81,50,4.76,GA,1675469443
221,airai,-8.9266,125.4092,17.62,89,100,1.19,TL,1675469443
222,inyonga,-6.7167,32.0667,18.07,88,100,0.85,TZ,1675469443
223,hoquiam,46.9809,-123.8893,9.05,94,100,12.35,US,1675469444
224,lasa,46.6166,10.7002,2.54,95,89,4.28,IT,1675469444
225,moose factory,51.2585,-80.6094,-35.88,97,83,2.33,CA,1675469445
226,montes altos,-5.8333,-47.0667,22.99,93,93,1.63,BR,1675469445
227,klaksvik,62.2266,-6.589,8.51,91,100,10.42,FO,1675469446
228,thompson,55.7435,-97.8558,-20.91,77,100,1.54,CA,1675469446
229,xicotencatl,23.0167,-98.8833,20.66,24,0,5.53,MX,1675469446
230,mozarlandia,-14.7447,-50.5706,24.17,84,48,0.54,BR,1675469447
231,suluq,31.6682,20.2521,11.07,68,53,3.14,LY,1675469447
232,tombouctou,20.0,-3.0,12.69,24,86,5.81,ML,1675469448
233,rudbar,30.15,62.6,14.78,53,19,3.89,AF,1675469448
234,prado,-17.3411,-39.2208,25.33,86,3,4.14,BR,1675469448
235,richards bay,-28.783,32.0377,21.9,94,65,2.53,ZA,1675469299
236,tautira,-17.7333,-149.15,27.24,81,100,8.59,PF,1675469449
237,puerto ayacucho,5.6639,-67.6236,28.87,51,89,1.75,VE,1675469449
238,kurtalan,37.9272,41.7028,1.05,68,100,1.58,TR,1675469449
239,holetown,13.1867,-59.6381,26.31,73,6,7.22,BB,1675469450
240,vanavara,60.34,102.2797,-28.45,100,87,1.17,RU,1675469450
241,banfora,10.6333,-4.7667,26.71,14,5,2.31,BF,1675469450
242,eagle pass,28.7091,-100.4995,17.47,44,0,2.62,US,1675469450
243,vilhena,-12.7406,-60.1458,20.96,94,99,0.76,BR,1675469350
244,port elizabeth,-33.918,25.5701,22.28,95,56,0.89,ZA,1675469451
245,labuhan,-6.8844,112.2051,25.5,88,100,4.37,ID,1675469451
246,jiangyin,31.9282,120.3126,5.55,64,5,1.91,CN,1675469451
247,fare,-16.7,-151.0167,27.52,76,21,6.96,PF,1675469452
248,illapel,-31.6308,-71.1653,23.52,59,24,2.22,CL,1675469171
249,saint-joseph,-21.3667,55.6167,25.21,86,67,4.68,RE,1675469452
250,bataipora,-22.2953,-53.2711,22.01,96,98,2.05,BR,1675469453
251,bengkulu,-3.8004,102.2655,23.9,87,100,2.41,ID,1675469453
252,pilar do sul,-23.8131,-47.7164,20.92,88,97,3.71,BR,1675469273
253,marystown,47.1666,-55.1483,-2.82,84,99,15.62,CA,1675469453
254,takoradi,4.8845,-1.7554,26.55,87,38,3.07,GH,1675469454
255,oranjemund,-28.55,16.4333,16.22,96,10,2.32,NA,1675469454
256,sioux lookout,50.1001,-91.917,-19.32,89,100,3.65,CA,1675469454
257,misratah,32.3754,15.0925,14.57,71,52,4.19,LY,1675469455
258,qaqortoq,60.7167,-46.0333,-14.8,83,50,6.11,GL,1675469455
259,northam,51.0333,-4.2167,9.1,85,45,3.84,GB,1675469455
260,fortuna,40.5982,-124.1573,14.64,71,75,3.6,US,1675469456
261,brusciano,40.9232,14.4239,13.15,74,20,1.54,IT,1675469456
262,de-kastri,51.4667,140.7833,-21.66,92,22,2.06,RU,1675469456
263,gamba,-2.65,10.0,26.05,87,53,2.31,GA,1675469457
264,thaton,16.9206,97.3714,21.87,67,13,1.36,MM,1675469457
265,amapa,1.0,-52.0,22.32,98,97,1.18,BR,1675469457
266,mount gambier,-37.8333,140.7667,16.58,65,69,4.37,AU,1675469457
267,quba,41.3626,48.5152,-1.18,59,99,3.52,AZ,1675469458
268,nalut,30.3333,10.85,10.11,45,4,10.05,LY,1675469458
269,kimbe,-5.5502,150.1429,29.61,69,78,1.49,PG,1675469458
270,kavieng,-2.5744,150.7967,27.68,77,100,2.19,PG,1675469459
271,orange cove,36.6244,-119.3137,19.9,28,75,0.0,US,1675469459
272,vanimo,-2.6741,141.3028,28.73,70,88,1.12,PG,1675469460
273,tamiahua,21.2667,-97.45,17.12,66,17,6.46,MX,1675469381
274,jinka,5.65,36.65,20.36,40,65,0.73,ET,1675469460
275,balykshi,47.0667,51.8667,-1.0,100,100,4.0,KZ,1675469461
276,santa cruz,-17.8,-63.1667,21.7,94,75,2.06,BO,1675469268
277,la carolina,38.2756,-3.6153,5.05,49,0,2.6,ES,1675469462
278,ust-barguzin,53.45,108.9833,-15.19,98,100,1.24,RU,1675469462
279,abha,18.2164,42.5053,11.14,87,40,2.06,SA,1675469463
280,antofagasta,-23.65,-70.4,21.6,87,21,1.65,CL,1675469463
281,moen,69.1304,18.6123,-20.6,84,40,0.0,NO,1675469464
282,dahuk,36.8695,42.994,2.05,69,62,3.07,IQ,1675469464
283,malacacheta,-17.8422,-42.0767,19.67,89,31,1.56,BR,1675469465
284,portland,45.5234,-122.6762,11.45,87,75,5.14,US,1675468823
285,fort nelson,58.8053,-122.7002,-15.03,69,85,0.45,CA,1675469465
286,maceio,-9.6658,-35.7353,26.36,75,65,4.79,BR,1675469287
287,comodoro rivadavia,-45.8667,-67.5,25.81,37,3,3.29,AR,1675469466
288,rock springs,41.5875,-109.2029,-5.31,73,0,2.57,US,1675469467
289,waingapu,-9.6567,120.2641,24.97,88,100,2.87,ID,1675469468
290,cidreira,-30.1811,-50.2056,23.95,87,100,1.83,BR,1675469468
291,broome,42.2506,-75.833,-15.17,72,100,7.72,US,1675469469
292,beroroha,-21.6667,45.1667,22.86,85,49,2.16,MG,1675469469
293,road town,18.4167,-64.6167,25.05,74,1,7.14,VG,1675469342
294,katsuura,35.1333,140.3,6.76,89,100,3.05,JP,1675469470
295,puyang,29.4603,119.8861,5.63,90,100,1.63,CN,1675469470
296,tooele,40.5308,-112.2983,5.51,64,0,0.0,US,1675469471
297,poum,-20.2333,164.0167,28.4,76,35,3.31,NC,1675469471
298,nome,64.5011,-165.4064,-15.47,87,99,2.03,US,1675468879
299,de aar,-30.6497,24.0123,22.9,40,4,4.39,ZA,1675469472
300,monze,-16.2833,27.4833,17.93,95,79,1.3,ZM,1675469472
301,padang,-0.9492,100.3543,22.03,81,100,1.64,ID,1675469473
302,ahuimanu,21.4447,-157.8378,26.53,82,75,4.63,US,1675469473
303,buluang,13.3068,123.3425,25.22,79,98,2.35,PH,1675469474
304,korla,41.7597,86.1469,-4.72,66,15,1.41,CN,1675469475
305,jalu,29.0331,21.5482,13.05,47,100,2.78,LY,1675469476
306,bennettsville,34.6174,-79.6848,8.1,60,0,2.06,US,1675469476
307,qrendi,35.8347,14.4583,7.81,87,20,2.57,MT,1675469476
308,kalmunai,7.4167,81.8167,23.8,88,28,1.86,LK,1675469477
309,surt,31.2089,16.5887,13.89,67,38,3.53,LY,1675469478
310,port blair,11.6667,92.75,25.23,82,24,3.11,IN,1675469478
311,abalak,58.1286,68.5944,-19.0,99,83,1.24,RU,1675469478
312,forest acres,34.0193,-80.9898,8.86,45,0,3.09,US,1675469479
313,barreiras,-12.1528,-44.99,24.01,80,66,0.5,BR,1675469196
314,brwinow,52.1427,20.717,-0.08,93,75,5.14,PL,1675469481
315,sindor,62.8629,51.8905,-8.74,97,100,0.64,RU,1675469481
316,hobyo,5.3505,48.5268,23.98,70,32,8.67,SO,1675469183
317,alice,27.7523,-98.0697,14.17,62,0,3.09,US,1675469484
318,biggar,55.6167,-3.5167,8.88,95,72,2.95,GB,1675469484
319,husavik,66.0449,-17.3389,2.4,70,100,7.38,IS,1675469484
320,saquena,-4.6667,-73.5167,23.27,89,81,1.11,PE,1675469485
321,alofi,-19.0595,-169.9187,24.22,85,100,7.94,NU,1675469486
322,bell ville,-32.6259,-62.6887,21.48,63,54,2.43,AR,1675469486
323,cap malheureux,-19.9842,57.6142,24.15,87,9,0.45,MU,1675469487
324,hokitika,-42.7167,170.9667,20.57,87,100,1.23,NZ,1675469488
325,sligo,54.2697,-8.4694,8.67,88,99,4.96,IE,1675469488
326,vostok,46.4856,135.8833,-18.94,92,96,1.44,RU,1675469489
327,dunda,-8.1167,34.25,18.05,98,100,1.46,TZ,1675469490
328,chimbote,-9.0853,-78.5783,22.04,83,98,3.08,PE,1675469490
329,kushiro,42.975,144.3747,-8.13,76,15,1.41,JP,1675469490
330,kayseri,38.737,35.4968,-4.99,86,75,0.0,TR,1675469491
331,altay,47.8667,88.1167,-7.57,68,93,2.35,CN,1675469492
332,kununurra,-15.7667,128.7333,27.99,74,88,1.54,AU,1675469485
333,byron bay,-28.65,153.6167,28.3,64,83,5.4,AU,1675469492
334,pirajui,-21.9986,-49.4572,21.45,93,100,1.33,BR,1675469493
335,bairiki,1.3292,172.9752,27.41,79,55,8.7,KI,1675469493
336,meulaboh,4.1363,96.1285,24.39,87,95,1.54,ID,1675469493
337,port moresby,-9.4431,147.1797,25.78,88,97,6.7,PG,1675469494
338,rio grande,-32.035,-52.0986,23.06,81,32,7.19,BR,1675469360
339,lucapa,-8.4192,20.7447,18.32,92,100,0.77,AO,1675469494
340,saldanha,-33.0117,17.9442,17.34,88,0,3.39,ZA,1675469496
341,pozo colorado,-23.4923,-58.7972,26.08,43,100,1.43,PY,1675469496
342,pachino,36.7186,15.0907,11.15,77,0,5.61,IT,1675469496
343,sorland,67.667,12.6934,2.92,74,80,10.06,NO,1675469497
344,sakakah,29.9697,40.2064,8.29,55,0,3.5,SA,1675469321
345,dudinka,69.4058,86.1778,-10.21,96,100,3.52,RU,1675469497
346,oistins,13.0667,-59.5333,26.05,73,40,7.2,BB,1675469275
347,nelson bay,-32.7167,152.15,24.49,39,0,3.58,AU,1675469498
348,marathon,44.9,-89.7668,-17.14,57,100,2.57,US,1675469498
349,whitehorse,60.7161,-135.0538,-9.55,72,93,4.02,CA,1675469498
350,maragogi,-9.0122,-35.2225,25.76,75,76,3.65,BR,1675469499
351,flinders,-34.5833,150.8552,23.36,46,0,4.02,AU,1675469499
352,chaltyr,47.2848,39.4823,2.43,98,100,3.89,RU,1675469499
353,obo,5.3998,26.4869,22.59,21,1,2.4,CF,1675469500
354,havre-saint-pierre,50.2334,-63.5986,-22.96,85,97,11.53,CA,1675469500
355,airdrie,55.866,-3.9803,9.31,91,83,2.91,GB,1675469500
356,lianzhou,24.7811,112.3825,11.75,92,100,1.32,CN,1675469500
357,sangin,32.0728,64.8359,9.63,73,6,3.67,AF,1675469501
358,ngama,11.7833,17.1667,23.52,16,75,4.62,TD,1675469501
359,egvekinot,66.3167,-179.1667,-28.79,86,7,6.57,RU,1675469502
360,faanui,-16.4833,-151.75,27.63,75,17,6.74,PF,1675469502
361,keuruu,62.2667,24.7,-7.89,92,75,4.15,FI,1675469502
362,hambantota,6.1241,81.1185,23.93,85,36,4.94,LK,1675469503
363,dovbysh,50.3733,27.9874,-4.59,93,97,1.83,UA,1675469503
364,killybegs,54.6333,-8.45,8.39,87,97,5.4,IE,1675469503
365,palauig,15.435,119.9045,25.63,67,99,1.62,PH,1675469504
366,tabou,4.423,-7.3528,26.33,86,41,2.83,CI,1675469504
367,talnakh,69.4865,88.3972,-10.44,96,100,2.2,RU,1675469504
368,kadrina,59.3347,26.145,-5.83,90,100,4.33,EE,1675469505
369,sobolevo,54.4299,31.8996,-10.0,98,95,1.93,RU,1675469505
370,aksarka,66.5606,67.7975,-12.92,98,96,2.87,RU,1675469508
371,tessalit,20.1986,1.0114,13.01,19,85,4.8,ML,1675469508
372,dauphin,51.1494,-100.0502,-14.19,90,99,2.16,CA,1675469509
373,mansa,29.9833,75.3833,11.6,54,2,2.81,IN,1675469509
374,nanchang,28.6833,115.8833,7.66,86,100,2.7,CN,1675469509
375,kieta,-6.2167,155.6333,29.58,69,100,1.86,PG,1675469510
376,mount isa,-20.7333,139.5,24.87,29,44,7.2,AU,1675469510
377,senj,44.9894,14.9058,7.31,87,100,0.89,HR,1675469511
378,sovetskiy,61.3614,63.5842,-18.36,100,97,1.34,RU,1675469511
379,quatre cocos,-20.2078,57.7625,23.94,84,17,1.87,MU,1675469511
380,constitucion,-35.3333,-72.4167,16.08,91,10,3.07,CL,1675469512
381,caucaia,-3.7361,-38.6531,27.8,76,90,2.63,BR,1675469330
382,rosamorada,22.1222,-105.2058,27.74,32,1,3.57,MX,1675469512
383,nefteyugansk,61.0998,72.6035,-18.46,98,43,3.02,RU,1675469417
384,magadan,59.5667,150.8,-19.33,80,46,2.45,RU,1675469513
385,vestmannaeyjar,63.4427,-20.2734,3.36,60,99,17.98,IS,1675469513
386,sitka,57.0531,-135.33,5.94,75,75,2.06,US,1675469513
387,phangnga,8.4509,98.5298,24.02,96,23,1.9,TH,1675469514
388,ouro preto do oeste,-10.7481,-62.2158,23.52,94,100,0.92,BR,1675469514
389,dzaoudzi,-12.7887,45.2699,24.94,88,0,1.54,YT,1675469514
390,humberto de campos,-2.5983,-43.4611,24.32,93,100,2.38,BR,1675469515
391,gallup,35.5281,-108.7426,8.91,34,0,2.06,US,1675469515
392,pontian kecil,1.4801,103.3899,25.18,91,100,2.28,MY,1675469515
393,lata,40.1629,-8.3327,3.93,76,0,1.72,PT,1675469517
394,puerto baquerizo moreno,-0.9,-89.6,25.74,73,58,0.58,EC,1675469517
395,amuntai,-2.4177,115.2494,23.52,96,100,0.65,ID,1675469288
396,bonanza,14.0289,-84.591,20.41,94,47,1.29,NI,1675469518
397,wanning,18.8003,110.3967,21.96,92,56,1.18,CN,1675469518
398,yarkovo,57.4028,67.0786,-19.6,98,79,1.91,RU,1675469519
399,lincoln,40.8,-96.667,-0.95,48,0,1.34,US,1675469476
400,rosario,-32.9468,-60.6393,25.46,47,60,0.89,AR,1675469377
401,karasjok,69.4719,25.5112,-18.4,100,100,1.67,NO,1675469519
402,nouadhibou,20.931,-17.0347,19.05,51,100,4.87,MR,1675469519
403,sambava,-14.2667,50.1667,24.06,91,8,2.4,MG,1675469520
404,susangerd,31.5608,48.1831,10.59,52,60,4.16,IR,1675469521
405,sur,22.5667,59.5289,20.61,59,0,2.1,OM,1675469521
406,pangai,-19.8,-174.35,26.48,77,99,7.1,TO,1675469239
407,coffs harbour,-30.3,153.1333,27.3,61,75,5.66,AU,1675469522
408,mabaruma,8.2,-59.7833,22.07,99,84,1.83,GY,1675469522
409,ilebo,-4.3167,20.5833,22.07,84,49,0.5,CD,1675469523
410,mendi,-6.1761,143.6513,14.92,97,100,0.24,PG,1675469523
411,dzhebariki-khaya,62.2167,135.8,-41.52,99,81,0.23,RU,1675469525
412,gararu,-9.9675,-37.0833,26.42,64,100,5.9,BR,1675469525
413,santa rosalia,27.3167,-112.2833,18.66,40,15,3.88,MX,1675469526
414,salalah,17.0151,54.0924,22.05,68,20,2.06,OM,1675469527
415,ponta delgada,37.7333,-25.6667,15.4,94,40,4.63,PT,1675469527
416,bac lieu,9.285,105.7244,25.47,78,57,7.98,VN,1675469528
417,mulege,26.8833,-111.9833,18.95,42,2,4.62,MX,1675469529
418,novi becej,45.5986,20.1356,6.06,79,100,9.26,RS,1675469529
419,leh,34.1667,77.5833,-12.0,93,82,0.85,IN,1675469272
420,isangel,-19.55,169.2667,30.31,73,90,7.16,VU,1675469267
421,araouane,18.9048,-3.5265,14.26,17,82,5.75,ML,1675469531
422,vila franca do campo,37.7167,-25.4333,15.23,90,52,3.53,PT,1675469532
423,abu dhabi,24.4667,54.3667,21.01,78,20,4.12,AE,1675469231
424,cam ranh,11.9214,109.1591,24.98,83,20,2.06,VN,1675469532
425,kongolo,-5.3833,27.0,20.46,97,88,1.3,CD,1675469533
426,male,4.1748,73.5089,26.97,78,75,3.6,MV,1675469533
427,zdvinsk,54.7021,78.661,-24.22,100,41,1.78,RU,1675469534
428,chinsali,-10.5414,32.0816,15.99,98,100,1.09,ZM,1675469535
429,rio blanco,18.8333,-97.15,13.72,97,100,2.58,MX,1675469535
430,kurilsk,45.2333,147.8833,-7.68,65,100,6.88,RU,1675469536
431,pangnirtung,66.1451,-65.7125,-35.99,89,97,0.94,CA,1675469537
432,lunca bradului,46.956,25.1114,-3.18,97,100,0.78,RO,1675469537
433,thinadhoo,0.5333,72.9333,27.1,70,84,7.46,MV,1675469538
434,narsaq,60.9167,-46.05,-10.88,75,65,4.99,GL,1675469538
435,gravelbourg,49.8834,-106.5512,-4.41,84,38,3.17,CA,1675469539
436,hualmay,-11.0964,-77.6139,22.54,83,90,3.6,PE,1675469539
437,puerto madryn,-42.7692,-65.0385,24.35,44,0,8.21,AR,1675469539
438,torbay,47.6666,-52.7314,2.93,97,100,7.2,CA,1675469540
439,roebourne,-20.7833,117.1333,30.65,54,33,0.27,AU,1675469541
440,hanmer springs,-42.5167,172.8167,30.35,39,3,1.93,NZ,1675469378
441,arman,59.7,150.1667,-20.92,86,48,3.42,RU,1675469542
442,lisala,2.15,21.5167,22.39,65,49,0.63,CD,1675469542
443,gurupi,-11.7292,-49.0686,24.97,84,76,0.65,BR,1675469542
444,ranau,5.9538,116.6641,21.45,94,86,0.91,MY,1675469543
445,ekuvukeni,-28.4675,30.1551,16.53,98,52,0.15,ZA,1675469543
446,codrington,-38.2667,141.9667,17.13,68,81,7.57,AU,1675469545
447,zhezkazgan,47.8043,67.7144,-10.33,95,97,3.03,KZ,1675469547
448,opuwo,-18.0607,13.84,21.4,30,94,1.92,NA,1675469547
449,loudi,27.7344,111.9944,4.51,89,100,2.04,CN,1675469548
450,vilani,56.5525,26.9245,-12.26,98,75,1.62,LV,1675469548
451,chivasso,45.1894,7.8872,11.25,75,100,2.57,IT,1675469549
452,adrar,20.5022,-10.0711,14.29,11,100,5.75,MR,1675469550
453,praia,14.9215,-23.5087,21.19,72,100,6.93,CV,1675469450
454,chimoio,-19.1164,33.4833,19.7,78,88,1.25,MZ,1675469553
455,lengshuijiang,27.6881,111.4294,5.36,90,100,1.27,CN,1675469553
456,tilichiki,60.4667,166.1,-20.69,95,74,3.83,RU,1675469553
457,salinopolis,-0.6136,-47.3561,25.76,84,51,5.4,BR,1675469554
458,gardenstown,57.671,-2.336,8.23,78,100,4.19,GB,1675469557
459,talakan,50.3167,130.3667,-24.73,100,98,0.88,RU,1675469547
460,griffith,41.5284,-87.4237,-10.08,52,100,2.06,US,1675469558
461,praia da vitoria,38.7333,-27.0667,15.42,93,85,4.81,PT,1675469558
462,caala,-12.8525,15.5606,15.5,89,100,1.27,AO,1675469558
463,tres picos,15.8667,-93.5333,25.79,63,24,7.11,MX,1675469559
464,alta floresta,-9.8756,-56.0861,22.42,94,79,0.47,BR,1675469560
465,wonthaggi,-38.6044,145.5913,15.46,72,100,9.1,AU,1675469560
466,touros,-5.1989,-35.4608,26.73,74,77,6.55,BR,1675469509
467,hauterive,46.0901,3.4459,5.42,90,83,0.16,FR,1675469560
468,atikokan,48.7555,-91.6216,-18.76,89,100,3.1,CA,1675469561
469,wagar,16.1525,36.2032,19.58,59,75,5.5,SD,1675469561
470,goderich,43.7501,-81.7165,-8.94,71,100,11.11,CA,1675469562
471,serov,59.6033,60.5787,-13.91,97,99,1.64,RU,1675469562
472,port macquarie,-31.4333,152.9167,27.72,34,0,4.81,AU,1675469304
473,leticia,-4.2153,-69.9406,26.03,94,40,0.0,CO,1675469563
474,sibu,2.3,111.8167,23.12,98,100,0.92,MY,1675469563
475,yar-sale,66.8333,70.8333,-9.41,96,100,2.39,RU,1675469563
476,kundiawa,-6.0167,144.9667,18.21,97,100,0.11,PG,1675469564
477,inhambane,-23.865,35.3833,24.49,89,20,3.76,MZ,1675469564
478,san cristobal,7.7669,-72.225,19.25,55,6,0.74,VE,1675469563
479,taltal,-25.4,-70.4833,20.32,83,24,1.23,CL,1675469565
480,elizabeth city,36.2946,-76.2511,2.79,59,40,6.69,US,1675469565
481,ayan,56.45,138.1667,-23.71,85,46,2.07,RU,1675469565
482,uzunovo,54.5386,38.6173,-2.7,97,100,2.7,RU,1675469566
483,waipawa,-41.4122,175.5153,24.52,61,5,2.84,NZ,1675469566
484,seminole,28.7086,-81.2081,15.14,86,40,6.17,US,1675469566
485,kiunga,-6.1219,141.2906,26.11,86,100,0.68,PG,1675469567
486,turka,49.1541,23.0297,-1.22,96,100,2.48,UA,1675469568
487,kuhdasht,33.535,47.6061,2.22,59,56,1.33,IR,1675469568
488,alghero,40.5589,8.3181,12.05,82,75,4.12,IT,1675469568
489,prainha,-1.8,-53.48,23.41,92,60,1.53,BR,1675469569
490,burgeo,47.6167,-57.6152,-8.73,77,100,14.64,CA,1675469569
491,ust-koksa,50.2696,85.6108,-7.99,97,99,0.16,RU,1675469569
492,herat,34.5,62.0,6.45,58,0,3.34,AF,1675469570
493,mattru,7.6244,-11.8332,24.75,88,6,1.04,SL,1675469570
494,jiexiu,37.0244,111.9125,-0.62,33,0,0.29,CN,1675469570
495,necochea,-38.5473,-58.7368,17.19,79,0,4.2,AR,1675469571
496,sakete,6.7362,2.6587,25.68,86,22,2.28,BJ,1675469571
497,tehachapi,35.1322,-118.449,12.57,35,97,4.47,US,1675469317
498,bud,39.447,-86.1758,-5.99,60,7,1.93,US,1675469572
499,xushan,30.1764,121.2457,7.76,71,100,2.93,CN,1675469572
500,gobabis,-22.45,18.9667,21.08,76,80,3.48,NA,1675469572
501,qeshm,26.9581,56.2719,20.11,78,0,3.28,IR,1675469573
502,ust-kuyga,70.0167,135.6,-40.99,100,98,0.2,RU,1675469574
503,leeton,-34.5667,146.4,18.83,41,1,5.73,AU,1675469574
504,kharp,66.8014,65.8081,-12.18,90,85,3.79,RU,1675469575
505,sharjah,25.3573,55.4033,21.99,83,75,4.63,AE,1675469284
506,ban nahin,18.2418,104.2122,21.03,91,66,1.27,LA,1675469576
507,andros town,24.7,-77.7667,23.98,67,37,3.82,BS,1675469576
508,chikwawa,-16.0335,34.8009,23.33,86,100,0.48,MW,1675469576
509,roma,43.2128,-75.4557,-17.17,73,100,7.2,US,1675469577
510,fallon,39.4735,-118.7774,10.93,35,75,3.09,US,1675469432
511,cockburn town,21.4612,-71.1419,25.12,74,3,6.99,TC,1675469577
512,cedar rapids,42.0083,-91.6441,-11.28,65,100,5.14,US,1675469367
513,marshfield,44.6689,-90.1718,-16.98,42,100,4.12,US,1675469578
514,kaka,37.3482,59.6143,5.64,81,1,0.59,TM,1675469578
515,sayyan,15.1718,44.3244,11.32,34,18,1.31,YE,1675469579
516,vardo,70.3705,31.1107,-6.01,79,20,8.75,NO,1675469580
517,zagreb,45.8131,15.9775,7.16,76,0,3.6,HR,1675469580
518,berlevag,70.8578,29.0864,-4.0,80,75,7.72,NO,1675469580
519,acatlan,20.15,-98.45,6.7,84,91,2.85,MX,1675469581
520,graaff-reinet,-32.2522,24.5308,18.84,89,20,1.42,ZA,1675469581
521,kirakira,-10.4544,161.9205,29.68,72,86,1.09,SB,1675469581
522,sabang,5.8933,95.3214,26.16,80,100,2.73,ID,1675469582
523,tucumcari,35.1717,-103.725,13.86,22,0,8.23,US,1675469582
524,teseney,15.11,36.6575,19.33,51,51,4.54,ER,1675469583
525,bara,10.3744,10.7288,23.55,22,100,3.78,NG,1675469583
526,sept-iles,50.2001,-66.3821,-24.41,82,100,7.15,CA,1675469285
527,singleton,-32.5667,151.1833,25.55,28,0,5.36,AU,1675469584
528,verkhnyaya toyma,62.2349,44.9985,-9.98,98,100,1.22,RU,1675469586
529,morondava,-20.2833,44.2833,26.13,83,3,2.33,MG,1675469586
530,port hardy,50.6996,-127.4199,7.1,81,100,10.29,CA,1675469407
531,the valley,18.217,-63.0578,25.61,78,1,7.04,AI,1675469587
532,paamiut,61.994,-49.6678,-10.99,91,100,2.36,GL,1675469587
533,naze,28.3667,129.4833,14.19,69,99,4.65,JP,1675469588
534,lima,-12.0432,-77.0282,26.06,71,75,7.72,PE,1675469157
535,melong,5.1218,9.9614,21.28,63,22,0.6,CM,1675469588
536,geraldton,-28.7667,114.6,31.23,20,73,8.23,AU,1675469589
537,manggar,-2.8833,108.2667,25.72,87,96,2.11,ID,1675469589
538,kajaani,64.2273,27.7285,-11.97,92,0,2.06,FI,1675469590
539,rumonge,-3.9736,29.4386,21.52,79,100,0.87,BI,1675469590
540,faya,18.3851,42.4509,11.29,73,78,2.18,SA,1675469591
541,karpathos,35.507,27.2132,9.98,53,10,7.72,GR,1675469591
542,clarence town,-32.5833,151.7833,25.08,23,0,5.47,AU,1675469592
543,mareeba,-17.0,145.4333,29.16,87,89,1.03,AU,1675469593
544,heihe,50.2441,127.4902,-27.68,99,79,0.78,CN,1675469593
545,emerald,-23.5333,148.1667,29.63,51,93,4.78,AU,1675469594
